[
  {
    "id": "5b7fa0e289eb3a1e28c5f0f0",
    "code": "120000",
    "name": "天津市",
    "longitude": "117.200983",
    "latitude": "39.084158"
  },
  {
    "id": "5b7fa0e489eb3a1e28c5f102",
    "code": "130000",
    "name": "河北省",
    "longitude": "114.468664",
    "latitude": "38.037057"
  },
  {
    "id": "5b7fa0fa89eb3a1e28c5f1d8",
    "code": "140000",
    "name": "山西省",
    "longitude": "112.562398",
    "latitude": "37.873531"
  },
  {
    "id": "5b7fa10a89eb3a1e28c5f26c",
    "code": "150000",
    "name": "内蒙古自治区",
    "longitude": "111.765617",
    "latitude": "40.817498"
  },
  {
    "id": "5b7fa11789eb3a1e28c5f2ef",
    "code": "210000",
    "name": "辽宁省",
    "longitude": "123.429440",
    "latitude": "41.835441"
  },
  {
    "id": "5b7fa12589eb3a1e28c5f370",
    "code": "220000",
    "name": "吉林省",
    "longitude": "125.325990",
    "latitude": "43.896536"
  },
  {
    "id": "5b7fa12e89eb3a1e28c5f3c7",
    "code": "230000",
    "name": "黑龙江省",
    "longitude": "126.661669",
    "latitude": "45.742347"
  },
  {
    "id": "5b7fa13e89eb3a1e28c5f467",
    "code": "310000",
    "name": "上海市",
    "longitude": "121.473701",
    "latitude": "31.230416"
  },
  {
    "id": "5b7fa14089eb3a1e28c5f479",
    "code": "320000",
    "name": "江苏省",
    "longitude": "118.763232",
    "latitude": "32.061707"
  },
  {
    "id": "5b7fa14e89eb3a1e28c5f4ff",
    "code": "330000",
    "name": "浙江省",
    "longitude": "120.152791",
    "latitude": "30.267446"
  },
  {
    "id": "5b7fa35b89eb3a1e28c5fa75",
    "code": "340000",
    "name": "安徽省",
    "longitude": "117.284922",
    "latitude": "31.861184"
  },
  {
    "id": "5b7fa36b89eb3a1e28c5fb0e",
    "code": "350000",
    "name": "福建省",
    "longitude": "119.295144",
    "latitude": "26.100779"
  },
  {
    "id": "5b7fa37589eb3a1e28c5fb76",
    "code": "360000",
    "name": "江西省",
    "longitude": "115.909228",
    "latitude": "28.675696"
  },
  {
    "id": "5b7fa38189eb3a1e28c5fbf1",
    "code": "370000",
    "name": "山东省",
    "longitude": "117.020359",
    "latitude": "36.668530"
  },
  {
    "id": "5b7fa39489eb3a1e28c5fcb1",
    "code": "410000",
    "name": "河南省",
    "longitude": "113.753602",
    "latitude": "34.765515"
  },
  {
    "id": "5b7fa3aa89eb3a1e28c5fd8b",
    "code": "420000",
    "name": "湖北省",
    "longitude": "114.341861",
    "latitude": "30.546498"
  },
  {
    "id": "5b7fa3b789eb3a1e28c5fe0f",
    "code": "430000",
    "name": "湖南省",
    "longitude": "112.983810",
    "latitude": "28.112444"
  },
  {
    "id": "5b7fa3c889eb3a1e28c5feb6",
    "code": "440000",
    "name": "广东省",
    "longitude": "113.266530",
    "latitude": "23.132191"
  },
  {
    "id": "5b7fa3d989eb3a1e28c5ff58",
    "code": "450000",
    "name": "广西壮族自治区",
    "longitude": "108.327546",
    "latitude": "22.815478"
  },
  {
    "id": "5b7fa3e789eb3a1e28c5ffe4",
    "code": "460000",
    "name": "海南省",
    "longitude": "110.349228",
    "latitude": "20.017377"
  },
  {
    "id": "5b7fa3ea89eb3a1e28c60006",
    "code": "500000",
    "name": "重庆市",
    "longitude": "106.551556",
    "latitude": "29.563009"
  },
  {
    "id": "5b7fa3ee89eb3a1e28c6002f",
    "code": "510000",
    "name": "四川省",
    "longitude": "104.075931",
    "latitude": "30.651651"
  },
  {
    "id": "5b7fa40589eb3a1e28c60111",
    "code": "520000",
    "name": "贵州省",
    "longitude": "106.707410",
    "latitude": "26.598194"
  },
  {
    "id": "5b7fa40f89eb3a1e28c60178",
    "code": "530000",
    "name": "云南省",
    "longitude": "102.710002",
    "latitude": "25.045806"
  },
  {
    "id": "5b7fa41f89eb3a1e28c60212",
    "code": "540000",
    "name": "西藏自治区",
    "longitude": "91.117212",
    "latitude": "29.646922"
  },
  {
    "id": "5b7fa42789eb3a1e28c6026a",
    "code": "610000",
    "name": "陕西省",
    "longitude": "108.954239",
    "latitude": "34.265472"
  },
  {
    "id": "5b7fa43489eb3a1e28c602ea",
    "code": "620000",
    "name": "甘肃省",
    "longitude": "103.826308",
    "latitude": "36.059421"
  },
  {
    "id": "5b7fa44089eb3a1e28c6035d",
    "code": "630000",
    "name": "青海省",
    "longitude": "101.780199",
    "latitude": "36.620901"
  },
  {
    "id": "5b7fa44689eb3a1e28c60395",
    "code": "640000",
    "name": "宁夏回族自治区",
    "longitude": "106.258754",
    "latitude": "38.471317"
  },
  {
    "id": "5b7fa44989eb3a1e28c603b6",
    "code": "650000",
    "name": "新疆维吾尔自治区",
    "longitude": "87.627704",
    "latitude": "43.793026"
  },
  {
    "id": "5b7fbb9289eb3a16f40a1f1d",
    "code": "110000",
    "name": "北京市",
    "longitude": "116.407526",
    "latitude": "39.904030"
  }
]